{
"type": "FeatureCollection",
"crs": { "type": "name", "properties": { "name": "urn:ogc:def:crs:OGC:1.3:CRS84" } },
                                                                                
"features": [
{ "type": "Feature", "properties": { "OBJECTID": 65, "STID": 65.0, "COUNTY": "臺北市", "TOWN": "北投區", "STATIONID": "001", "NAME": "湖田國小", "DEP": "水利處", "V": 65.0, "X": 303487.459140849998221, "Y": 2784790.491683150175959, "X_97": 304329.0934, "Y_97": 2784567.8764, "Visible": "1", "lat": 25.16866306, "lon": 121.53896456 }, "geometry": { "type": "Point", "coordinates": [ 121.547179545224026, 25.166861610462696 ] } },
{ "type": "Feature", "properties": { "OBJECTID": 66, "STID": 66.0, "COUNTY": "臺北市", "TOWN": "北投區", "STATIONID": "002", "NAME": "大屯國小", "DEP": "水利處", "V": 66.0, "X": 299992.216769599996042, "Y": 2783240.903969710227102, "X_97": 300824.3981, "Y_97": 2783058.1663, "Visible": "1", "lat": 25.15515614, "lon": 121.50414176 }, "geometry": { "type": "Point", "coordinates": [ 121.512356377213735, 25.15335663025699 ] } },
{ "type": "Feature", "properties": { "OBJECTID": 67, "STID": 67.0, "COUNTY": "臺北市", "TOWN": "北投區", "STATIONID": "003", "NAME": "桃源國中", "DEP": "水利處", "V": 67.0, "X": 297973.40575972001534, "Y": 2781489.570848070085049, "X_97": 298099.7731, "Y_97": 2780772.8249, "Visible": "1", "lat": 25.13461386, "lon": 121.47703599 }, "geometry": { "type": "Point", "coordinates": [ 121.485249642436585, 25.13281585863238 ] } },
{ "type": "Feature", "properties": { "OBJECTID": 68, "STID": 68.0, "COUNTY": "臺北市", "TOWN": "北投區", "STATIONID": "004", "NAME": "北投國小", "DEP": "水利處", "V": 68.0, "X": 299630.496065260027535, "Y": 2780902.938655530102551, "X_97": 300310.9758, "Y_97": 2780712.8744, "Visible": "1", "lat": 25.13400042, "lon": 121.49896305 }, "geometry": { "type": "Point", "coordinates": [ 121.507176328713044, 25.132201198731032 ] } },
{ "type": "Feature", "properties": { "OBJECTID": 69, "STID": 69.0, "COUNTY": "臺北市", "TOWN": "士林區", "STATIONID": "005", "NAME": "陽明高中", "DEP": "水利處", "V": 69.0, "X": 301337.350466849980876, "Y": 2776330.559131269808859, "X_97": 302113.4143, "Y_97": 2776192.07, "Visible": "1", "lat": 25.09312589, "lon": 121.51666672 }, "geometry": { "type": "Point", "coordinates": [ 121.52487699812626, 25.091325702837352 ] } },
{ "type": "Feature", "properties": { "OBJECTID": 70, "STID": 70.0, "COUNTY": "臺北市", "TOWN": "大同區", "STATIONID": "006", "NAME": "太平國小", "DEP": "水利處", "V": 70.0, "X": 300810.542402360006236, "Y": 2772879.506456059869379, "X_97": 301640.7067, "Y_97": 2772675.8966, "Visible": "1", "lat": 25.06139838, "lon": 121.51184832 }, "geometry": { "type": "Point", "coordinates": [ 121.520056558404733, 25.059598471023047 ] } },
{ "type": "Feature", "properties": { "OBJECTID": 71, "STID": 71.0, "COUNTY": "臺北市", "TOWN": "松山區", "STATIONID": "007", "NAME": "民生國中", "DEP": "水利處", "V": 71.0, "X": 306265.703111440001521, "Y": 2772762.349591949954629, "X_97": 307095.9476, "Y_97": 2772558.7821, "Visible": "1", "lat": 25.06014487, "lon": 121.56591232 }, "geometry": { "type": "Point", "coordinates": [ 121.574119641246895, 25.058341975972521 ] } },
{ "type": "Feature", "properties": { "OBJECTID": 72, "STID": 72.0, "COUNTY": "臺北市", "TOWN": "中正區", "STATIONID": "008", "NAME": "中正國中", "DEP": "水利處", "V": 72.0, "X": 301839.09856332000345, "Y": 2769656.661397050134838, "X_97": 302669.2588, "Y_97": 2769453.0126, "Visible": "1", "lat": 25.03226686, "lon": 121.52191953 }, "geometry": { "type": "Point", "coordinates": [ 121.530125666055525, 25.03046640273795 ] } },
{ "type": "Feature", "properties": { "OBJECTID": 73, "STID": 73.0, "COUNTY": "臺北市", "TOWN": "信義區", "STATIONID": "009", "NAME": "三興國小", "DEP": "水利處", "V": 73.0, "X": 305514.283846740028821, "Y": 2769363.84757278021425, "X_97": 306344.4974, "Y_97": 2769160.226, "Visible": "1", "lat": 25.02949125, "lon": 121.55832557 }, "geometry": { "type": "Point", "coordinates": [ 121.5665309670688, 25.02768878891499 ] } },
{ "type": "Feature", "properties": { "OBJECTID": 74, "STID": 74.0, "COUNTY": "臺北市", "TOWN": "士林區", "STATIONID": "010", "NAME": "格致國中", "DEP": "水利處", "V": 74.0, "X": 304252.231493570026942, "Y": 2780639.487135279923677, "X_97": 305024.574, "Y_97": 2780464.02, "Visible": "1", "lat": 25.13158903, "lon": 121.54569895 }, "geometry": { "type": "Point", "coordinates": [ 121.55391134885221, 25.129787223138287 ] } },
{ "type": "Feature", "properties": { "OBJECTID": 75, "STID": 75.0, "COUNTY": "臺北市", "TOWN": "士林區", "STATIONID": "011", "NAME": "平等國小", "DEP": "水利處", "V": 75.0, "X": 307309.309896409977227, "Y": 2780423.810079080052674, "X_97": 308139.6134, "Y_97": 2780220.3687, "Visible": "1", "lat": 25.12927243, "lon": 121.57658041 }, "geometry": { "type": "Point", "coordinates": [ 121.584792182978433, 25.127468911867691 ] } },
{ "type": "Feature", "properties": { "OBJECTID": 76, "STID": 76.0, "COUNTY": "臺北市", "TOWN": "士林區", "STATIONID": "012", "NAME": "至善國中", "DEP": "水利處", "V": 76.0, "X": 305170.842054419976193, "Y": 2777541.846940400078893, "X_97": 306073.9305, "Y_97": 2777381.0743, "Visible": "1", "lat": 25.10371809, "lon": 121.55597948 }, "geometry": { "type": "Point", "coordinates": [ 121.564189863770807, 25.101915723271365 ] } },
{ "type": "Feature", "properties": { "OBJECTID": 77, "STID": 77.0, "COUNTY": "臺北市", "TOWN": "內湖區", "STATIONID": "013", "NAME": "碧湖國小", "DEP": "水利處", "V": 77.0, "X": 308839.389513840025757, "Y": 2775405.497114410158247, "X_97": 309675.1415, "Y_97": 2775306.8909, "Visible": "1", "lat": 25.08485466, "lon": 121.59159439 }, "geometry": { "type": "Point", "coordinates": [ 121.599802964278226, 25.08305033486193 ] } },
{ "type": "Feature", "properties": { "OBJECTID": 78, "STID": 78.0, "COUNTY": "臺北市", "TOWN": "內湖區", "STATIONID": "014", "NAME": "東湖國小", "DEP": "水利處", "V": 78.0, "X": 311328.565068160009105, "Y": 2773788.458264899905771, "X_97": 312200.6953, "Y_97": 2773597.8403, "Visible": "1", "lat": 25.06932383, "lon": 121.61655328 }, "geometry": { "type": "Point", "coordinates": [ 121.624760432783276, 25.06751813460443 ] } },
{ "type": "Feature", "properties": { "OBJECTID": 79, "STID": 79.0, "COUNTY": "臺北市", "TOWN": "南港區", "STATIONID": "015", "NAME": "留公國中", "DEP": "水利處", "V": 79.0, "X": 308258.960329300025478, "Y": 2770216.575125580187887, "X_97": 309089.2186, "Y_97": 2770012.9888, "Visible": "1", "lat": 25.03708523, "lon": 121.58555884 }, "geometry": { "type": "Point", "coordinates": [ 121.59376433116077, 25.035281261759494 ] } },
{ "type": "Feature", "properties": { "OBJECTID": 80, "STID": 80.0, "COUNTY": "臺北市", "TOWN": "南港區", "STATIONID": "016", "NAME": "舊莊國小", "DEP": "水利處", "V": 80.0, "X": 311682.967884489975404, "Y": 2770562.865685900207609, "X_97": 312534.1114, "Y_97": 2770344.158, "Visible": "1", "lat": 25.03993653, "lon": 121.61971033 }, "geometry": { "type": "Point", "coordinates": [ 121.627915479281413, 25.0381306690063 ] } },
{ "type": "Feature", "properties": { "OBJECTID": 81, "STID": 81.0, "COUNTY": "臺北市", "TOWN": "信義區", "STATIONID": "017", "NAME": "市政中心", "DEP": "水利處", "V": 81.0, "X": 306135.952455319988076, "Y": 2770222.230293579865247, "X_97": 306966.1802, "Y_97": 2770018.626, "Visible": "1", "lat": 25.03721753, "lon": 121.56452114 }, "geometry": { "type": "Point", "coordinates": [ 121.572726956505335, 25.035414726703078 ] } },
{ "type": "Feature", "properties": { "OBJECTID": 82, "STID": 82.0, "COUNTY": "臺北市", "TOWN": "文山區", "STATIONID": "018", "NAME": "博嘉國小", "DEP": "水利處", "V": 82.0, "X": 307289.187528389971703, "Y": 2766336.588177959900349, "X_97": 308111.9706, "Y_97": 2766164.7142, "Visible": "1", "lat": 25.00238123, "lon": 121.5757129 }, "geometry": { "type": "Point", "coordinates": [ 121.583916229708336, 25.000577826115833 ] } },
{ "type": "Feature", "properties": { "OBJECTID": 83, "STID": 83.0, "COUNTY": "臺北市", "TOWN": "文山區", "STATIONID": "019", "NAME": "北政國中", "DEP": "水利處", "V": 83.0, "X": 307521.425096609978937, "Y": 2764413.751696169842035, "X_97": 308318.4053, "Y_97": 2764193.0997, "Visible": "1", "lat": 24.98457371, "lon": 121.57767475 }, "geometry": { "type": "Point", "coordinates": [ 121.585876868330473, 24.982770201384792 ] } },
{ "type": "Feature", "properties": { "OBJECTID": 88, "STID": 0.0, "COUNTY": "臺北市", "TOWN": "文山區", "STATIONID": "06", "NAME": "埤腹", "DEP": "水利處", "V": 0.0, "X": 304229.441989540006034, "Y": 2764602.196752349846065, "X_97": 305066.2711, "Y_97": 2764396.9234, "Visible": "1", "lat": 24.98653538, "lon": 121.54546994 }, "geometry": { "type": "Point", "coordinates": [ 121.553672681134984, 24.984733642188161 ] } },
{ "type": "Feature", "properties": { "OBJECTID": 89, "STID": 0.0, "COUNTY": "臺北市", "TOWN": "萬華區", "STATIONID": "09", "NAME": "雙園", "DEP": "水利處", "V": 0.0, "X": 298493.798464199993759, "Y": 2769442.782100849784911, "X_97": 299336.8446, "Y_97": 2769225.9647, "Visible": "1", "lat": 25.03032936, "lon": 121.48889024 }, "geometry": { "type": "Point", "coordinates": [ 121.49709674894018, 25.028530728866293 ] } },
{ "type": "Feature", "properties": { "OBJECTID": 90, "STID": 0.0, "COUNTY": "臺北市", "TOWN": "南港區", "STATIONID": "15", "NAME": "玉成", "DEP": "水利處", "V": 0.0, "X": 307943.829961, "Y": 2771908.961431149858981, "X_97": 308774.0939, "Y_97": 2771705.3975, "Visible": "1", "lat": 25.05237633, "lon": 121.58250835 }, "geometry": { "type": "Point", "coordinates": [ 121.590714899706626, 25.050572522865362 ] } },
{ "type": "Feature", "properties": { "OBJECTID": 91, "STID": 0.0, "COUNTY": "臺北市", "TOWN": "中山區", "STATIONID": "22", "NAME": "建國", "DEP": "水利處", "V": 0.0, "X": 302530.126531959977001, "Y": 2774105.067417200189084, "X_97": 303360.3228, "Y_97": 2773901.493, "Visible": "1", "lat": 25.07240323, "lon": 121.52893963 }, "geometry": { "type": "Point", "coordinates": [ 121.537148337019701, 25.070602375878714 ] } },
{ "type": "Feature", "properties": { "OBJECTID": 92, "STID": 0.0, "COUNTY": "臺北市", "TOWN": "士林區", "STATIONID": "31", "NAME": "福德", "DEP": "水利處", "V": 0.0, "X": 302510.90809993998846, "Y": 2777098.174107979983091, "X_97": 303354.8676, "Y_97": 2776930.0493, "Visible": "1", "lat": 25.0997449, "lon": 121.52900307 }, "geometry": { "type": "Point", "coordinates": [ 121.537213603732809, 25.097944032751919 ] } },
{ "type": "Feature", "properties": { "OBJECTID": 93, "STID": 0.0, "COUNTY": "臺北市", "TOWN": "北投區", "STATIONID": "35", "NAME": "奇岩", "DEP": "水利處", "V": 0.0, "X": 299927.701569540018681, "Y": 2779828.856478529982269, "X_97": 300754.1787, "Y_97": 2779610.4852, "Visible": "1", "lat": 25.12403332, "lon": 121.50331763 }, "geometry": { "type": "Point", "coordinates": [ 121.51153017758746, 25.122233862248304 ] } },
{ "type": "Feature", "properties": { "OBJECTID": 94, "STID": 0.0, "COUNTY": "臺北市", "TOWN": "士林區", "STATIONID": "14", "NAME": "中洲", "DEP": "水利處", "V": 0.0, "X": 297080.963390889985021, "Y": 2777800.660636640153825, "X_97": 297885.2074, "Y_97": 2777552.285, "Visible": "1", "lat": 25.1055459, "lon": 121.47479571 }, "geometry": { "type": "Point", "coordinates": [ 121.483007446477927, 25.10374803169406 ] } },
{ "type": "Feature", "properties": { "OBJECTID": 95, "STID": 0.0, "COUNTY": "臺北市", "TOWN": "北投區", "STATIONID": "404", "NAME": "磺溪橋", "DEP": "水利處", "V": 0.0, "X": 302057.0, "Y": 2779227.0, "X_97": 302887.217, "Y_97": 2779023.4997, "Visible": "1", "lat": 25.11866077, "lon": 121.52444718 }, "geometry": { "type": "Point", "coordinates": [ 121.532659046457653, 25.116860139577966 ] } },
{ "type": "Feature", "properties": { "OBJECTID": 96, "STID": 0.0, "COUNTY": "臺北市", "TOWN": "北投區", "STATIONID": "403", "NAME": "中和橋", "DEP": "水利處", "V": 0.0, "X": 299778.0, "Y": 2781473.0, "X_97": 300603.8926, "Y_97": 2781247.9799, "Visible": "1", "lat": 25.13882147, "lon": 121.50188774 }, "geometry": { "type": "Point", "coordinates": [ 121.510101290668132, 25.137022087522986 ] } },
{ "type": "Feature", "properties": { "OBJECTID": 97, "STID": 0.0, "COUNTY": "臺北市", "TOWN": "內湖區", "STATIONID": "402", "NAME": "白馬山莊", "DEP": "水利處", "V": 0.0, "X": 312093.0, "Y": 2774666.0, "X_97": 312870.8001, "Y_97": 2774470.3692, "Visible": "1", "lat": 25.07717308, "lon": 121.62323513 }, "geometry": { "type": "Point", "coordinates": [ 121.631442705515212, 25.075367006942646 ] } },
{ "type": "Feature", "properties": { "OBJECTID": 98, "STID": 0.0, "COUNTY": "臺北市", "TOWN": "士林區", "STATIONID": "41", "NAME": "雙溪", "DEP": "水利處", "V": 0.0, "X": 306437.28, "Y": 2778672.88, "X_97": 307445.3954, "Y_97": 2778510.8075, "Visible": "1", "lat": 25.1138655, "lon": 121.56962445 }, "geometry": { "type": "Point", "coordinates": [ 121.577835295490601, 25.112062374220923 ] } },
{ "type": "Feature", "properties": { "OBJECTID": 99, "STID": 0.0, "COUNTY": "臺北市", "TOWN": "士林區", "STATIONID": "401", "NAME": "望星橋", "DEP": "水利處", "V": 0.0, "X": 303897.0, "Y": 2776841.0, "X_97": 304727.2334, "Y_97": 2776637.4773, "Visible": "1", "lat": 25.09705446, "lon": 121.54259768 }, "geometry": { "type": "Point", "coordinates": [ 121.550807826849336, 25.095252833963826 ] } },
{ "type": "Feature", "properties": { "OBJECTID": 100, "STID": 0.0, "COUNTY": "臺北市", "TOWN": "南港區", "STATIONID": "405", "NAME": "宜興橋", "DEP": "水利處", "V": 0.0, "X": 311808.0, "Y": 2770697.0, "X_97": 312638.3118, "Y_97": 2770493.4475, "Visible": "1", "lat": 25.04127997, "lon": 121.62074969 }, "geometry": { "type": "Point", "coordinates": [ 121.628954910455761, 25.03947405657825 ] } },
{ "type": "Feature", "properties": { "OBJECTID": 101, "STID": 0.0, "COUNTY": "臺北市", "TOWN": "中山區", "STATIONID": "020", "NAME": "長安國小", "DEP": "水利處", "V": 0.0, "X": 0.0, "Y": 0.0, "X_97": 303562.3211, "Y_97": 2771329.9408, "Visible": "1", "lat": 25.04918032, "lon": 121.53084186 }, "geometry": { "type": "Point", "coordinates": [ 121.539048985472576, 25.04737936573742 ] } },
{ "type": "Feature", "properties": { "OBJECTID": 0, "STID": 0.0, "COUNTY": "臺北市", "TOWN": "內湖區", "STATIONID": null, "NAME": "大湖沉砂池", "DEP": "水利處", "V": 0.0, "X": 0.0, "Y": 0.0, "X_97": 307182.59, "Y_97": 2763853.09, "Visible": "1", "lat": 25.091876, "lon": 121.59721 }, "geometry": { "type": "Point", "coordinates": [ 121.605442934405445, 25.090095861249509 ] } },
{ "type": "Feature", "properties": { "OBJECTID": 0, "STID": 0.0, "COUNTY": "臺北市", "TOWN": "文山區", "STATIONID": null, "NAME": "木新雨量筒", "DEP": "水利處", "V": 0.0, "X": 0.0, "Y": 0.0, "X_97": 307182.59, "Y_97": 2763853.09, "Visible": null, "lat": 24.981524, "lon": 121.566389 }, "geometry": { "type": "Point", "coordinates": [ 121.574612432578036, 24.979744508834802 ] } }
]
}
